{"version": 0.6, "generator": "Overpass API 0.7.62.11 87bfad18", "osm3s": {"timestamp_osm_base": "2026-06-20T18:10:30Z", "copyright": "The data included in this document is from www.openstreetmap.org. The data is made available under ODbL."}, "elements": [{"type": "node", "id": 446791198, "lat": 12.9994184, "lon": 77.5497993, "tags": {"alt_name": "Navarang Theatre (towards - Rajajinagara 1st Block)", "bench": "yes", "bin": "no", "bus": "yes", "covered": "yes", "highway": "bus_stop", "kerb": "flush", "lit": "yes", "name": "Navarang Theatre", "name:kn": "\u0ca8\u0cb5\u0cb0\u0c82\u0c97 \u0c9a\u0cbf\u0ca4\u0ccd\u0cb0\u0cae\u0c82\u0ca6\u0cbf\u0cb0", "network": "BMTC", "operator": "BMTC", "passenger_information_display": "no", "public_transport": "platform", "shelter": "yes", "tactile_paving": "yes"}}, {"type": "node", "id": 2398081977, "lat": 12.9980829, "lon": 77.5509836, "tags": {"bench": "yes", "bin": "no", "bus": "yes", "covered": "no", "highway": "bus_stop", "kerb": "no", "lit": "no", "loc_name": "RAJAJINAGARA", "name": "Navarang Theatre", "name:kn": "\u0ca8\u0cb5\u0cb0\u0c82\u0c97 \u0c9a\u0cbf\u0ca4\u0ccd\u0cb0\u0cae\u0c82\u0ca6\u0cbf\u0cb0", "network": "BMTC", "operator": "BMTC", "passenger_information_display": "no", "public_transport": "platform", "shelter": "no", "tactile_paving": "no"}}, {"type": "node", "id": 3919864572, "lat": 12.9978642, "lon": 77.5503836, "tags": {"highway": "traffic_signals"}}, {"type": "node", "id": 7139631433, "lat": 12.9993714, "lon": 77.5500105, "tags": {"bench": "yes", "bin": "no", "bus": "yes", "covered": "yes", "highway": "bus_stop", "kerb": "flush", "lit": "yes", "name": "Navarang Theatre", "name:en": "Navarang Theatre", "network": "BMTC", "operator": "BMTC", "passenger_information_display": "no", "public_transport": "platform", "shelter": "yes", "tactile_paving": "yes"}}, {"type": "node", "id": 11873248319, "lat": 13.0002194, "lon": 77.5505242, "tags": {"bench": "no", "bin": "no", "highway": "bus_stop", "lit": "yes", "name": "Canara Bank Rajajinagara 1st Block", "name:en": "Canara Bank Rajajinagara 1st Block", "network": "BMTC", "operator": "BMTC", "public_transport": "platform", "shelter": "no"}}]}