{"version": 0.6, "generator": "Overpass API 0.7.62.11 87bfad18", "osm3s": {"timestamp_osm_base": "2026-06-20T17:34:00Z", "copyright": "The data included in this document is from www.openstreetmap.org. The data is made available under ODbL."}, "elements": [{"type": "node", "id": 314699408, "lat": 12.9780808, "lon": 77.5723728, "tags": {"highway": "crossing"}}, {"type": "node", "id": 2398074914, "lat": 12.9779079, "lon": 77.5723936, "tags": {"alt_name": "Majestic Bus Station", "bench": "yes", "bus": "yes", "fixme": "Parent relations need to be changed to include corresponding platform node in KBS", "highway": "bus_stop", "int_name": "BMTC Bus Stand", "loc_name": "Majestic", "name": "Kempegowda Bus Station", "name:kn": "\u0c95\u0cc6\u0c82\u0caa\u0cc7\u0c97\u0ccc\u0ca1 \u0cac\u0cb8\u0ccd \u0ca8\u0cbf\u0cb2\u0ccd\u0ca6\u0cbe\u0ca3", "name:ml": "\u0d15\u0d46\u0d02\u0d2a\u0d46\u0d17\u0d57\u0d21 \u0d2c\u0d38\u0d4d \u0d38\u0d4d\u0d31\u0d4d\u0d31\u0d47\u0d37\u0d7b", "network": "BMTC", "network:wikidata": "Q3345039", "operator": "BMTC", "public_transport": "platform", "shelter": "yes"}}, {"type": "node", "id": 5558684129, "lat": 12.9786698, "lon": 77.5731925, "tags": {"highway": "traffic_signals", "traffic_signals": "signal"}}, {"type": "node", "id": 10035532963, "lat": 12.9787401, "lon": 77.573267, "tags": {"highway": "traffic_signals", "traffic_signals": "signal"}}, {"type": "node", "id": 10633375310, "lat": 12.978235, "lon": 77.5723723, "tags": {"highway": "crossing"}}, {"type": "node", "id": 10633375311, "lat": 12.9784263, "lon": 77.572372, "tags": {"highway": "crossing"}}]}